Code,Name,ICAO,IATA,Location,CountryISO2,Latitude,Longitude,AltitudeFeet
KT00,Chambers County Airport,KT00,,Anahuac,US,29.770100,-94.662399,21
KT03,Tuba City Airport,KT03,TBC,Tuba City,US,36.092800,-111.383003,4513
KT05,Charles R Johnson Airport,KT05,,Port Mansfield,US,26.562799,-97.437798,10
KT12,Kirbyville Airport,KT12,,Kirbyville,US,30.646601,-93.914902,121
KT15,Marlin Airport,KT15,,Marlin,US,31.340700,-96.851997,411
KT16,Reserve Airport,KT16,,Reserve,US,33.694199,-108.848999,6360
KT17,New Gulf Airport,KT17,,New Gulf,US,29.276100,-95.888603,100
KT19,Duval Freer Airport,KT19,,Freer,US,27.883600,-98.600304,564
KT20,Roger M. Dreyer Memorial Airport,KT20,,Gonzales,US,29.528000,-97.461403,354
KT23,Albany Municipal Airport,KT23,,Albany,US,32.719002,-99.267601,1425
KT24,Pineland Municipal Airport,KT24,,Pineland,US,31.233500,-93.981903,260
KT27,Horizon Airport,KT27,,El Paso,US,31.719801,-106.237000,4007
KT30,Mc Kinley Field,KT30,,Pearsall,US,28.822300,-99.109001,586
KT31,Aero Country Airport,KT31,,Mc Kinney,US,33.208500,-96.741898,792
KT35,Cameron Municipal Airpark,KT35,,Cameron,US,30.879400,-96.971100,402
KT36,Paul Pittman Memorial Airport,KT36,,Tylertown,US,31.146000,-90.168098,384
KT39,Archer City Municipal Airport,KT39,,Archer City,US,33.582298,-98.618698,1065
KT41,La Porte Municipal Airport,KT41,,La Porte,US,29.669300,-95.064201,25
KT42,Ruth Airport,KT42,,Ruth,US,40.211300,-123.297997,2781
KT45,Panhandle Carson County Airport,KT45,,Panhandle,US,35.361698,-101.364998,3454
KT50,Menard County Airport,KT50,,Menard,US,30.933500,-99.817001,1930
KT51,Dan Jones International Airport,KT51,,Houston,US,30.042801,-95.667198,166
KT54,Lane Airpark,KT54,,Rosenberg,US,29.524401,-95.775200,94
KT55,Dimmitt Municipal Airport,KT55,,Dimmitt,US,34.566700,-102.322998,3883
KT59,Wheeler Municipal Airport,KT59,,Wheeler,US,35.451099,-100.199997,2470
KT60,Stonewall County Airport,KT60,,Aspermont,US,33.172298,-100.197998,1744
KT65,Mid Valley Airport,KT65,,Weslaco,US,26.177601,-97.973099,70
KT67,Hicks Air Field,KT67,,Fort Worth,US,32.931198,-97.411697,855
KT69,Alfred C 'Bubba' Thomas Airport,KT69,,Sinton,US,28.039200,-97.542397,48
KT70,Laughlin Air Force Base Auxiliary Nr 1 Airport,KT70,,Spofford,US,29.125999,-100.481003,976
KT74,Taylor Municipal Airport,KT74,,Taylor,US,30.572599,-97.443199,600
KT77,Presidio Lely International Airport,KT77,,Presidio,US,29.634100,-104.362000,2932
KT78,Liberty Municipal Airport,KT78,,Liberty,US,30.077801,-94.698601,70
KT82,Gillespie County Airport,KT82,,Fredericksburg,US,30.243200,-98.909203,1695
KT85,Yoakum Municipal Airport,KT85,,Yoakum,US,29.313200,-97.138397,365
KT88,Colorado City Airport,KT88,,Colorado City,US,32.468399,-100.920998,2214
KT90,Chambers County Winnie Stowell Airport,KT90,,Winnie/Stowell,US,29.804100,-94.431000,25
KT92,Mason County Airport,KT92,,Mason,US,30.732201,-99.184303,1502
KT93,Follett Lipscomb County Airport,KT93,,Follett,US,36.440800,-100.124001,2601
KTAD,Perry Stokes Airport,KTAD,TAD,Trinidad,US,37.259399,-104.341003,5762
KTAN,Taunton Municipal King Field,KTAN,,Taunton,US,41.874401,-71.016602,43
KTAZ,Taylorville Municipal Airport,KTAZ,,Taylorville,US,39.534199,-89.327797,622
KTBN,Waynesville-St. Robert Regional Forney field,KTBN,TBN,Fort Leonard Wood,US,37.741600,-92.140701,1159
KTBR,Statesboro Bulloch County Airport,KTBR,TBR,Statesboro,US,32.482700,-81.736900,187
KTCC,Tucumcari Municipal Airport,KTCC,TCC,Tucumcari,US,35.182800,-103.602997,4065
KTCL,Tuscaloosa Regional Airport,KTCL,TCL,Tuscaloosa,US,33.220600,-87.611397,170
KTCM,McChord Air Force Base,KTCM,TCM,Tacoma,US,47.137699,-122.475998,322
KTCS,Truth Or Consequences Municipal Airport,KTCS,TCS,Truth Or Consequences,US,33.236900,-107.272003,4853
KTCY,Tracy Municipal Airport,KTCY,,Tracy,US,37.688999,-121.442001,193
KTDF,Person County Airport,KTDF,,Roxboro,US,36.284901,-78.984200,609
KTDO,Ed Carlson Memorial Field South Lewis County Airport,KTDO,TDO,Toledo,US,46.477200,-122.806000,374
KTDW,Tradewind Airport,KTDW,TDW,Amarillo,US,35.169899,-101.825996,3649
KTDZ,Toledo Executive Airport,KTDZ,TDZ,Toledo,US,41.564899,-83.482300,623
KTEB,Teterboro Airport,KTEB,TEB,Teterboro,US,40.850101,-74.060799,9
KTEL,Perry County Municipal Airport,KTEL,,Tell City,US,38.017700,-86.690903,660
KTEW,Mason Jewett Field,KTEW,,Mason,US,42.565800,-84.423203,920
KTEX,Telluride Regional Airport,KTEX,TEX,Telluride,US,37.953800,-107.907997,9070
KTFP,McCampbell-Porter Airport,KTFP,,Ingleside,US,27.913000,-97.211502,18
KTGC,Gibson County Airport,KTGC,,Trenton,US,35.932499,-88.848900,359
KTGI,Tangier Island Airport,KTGI,,Tangier,US,37.825100,-75.997803,5
KTHA,Tullahoma Regional Arpt/Wm Northern Field,KTHA,THA,Tullahoma,US,35.380100,-86.246399,1083
KTHM,Thompson Falls Airport,KTHM,,Thompson Falls,US,47.573502,-115.280998,2467
KTHP,Hot Springs Co Thermopolis Municipal Airport,KTHP,,Thermopolis,US,43.658298,-108.212997,4592
KTHV,York Airport,KTHV,,York,US,39.917000,-76.873001,495
KTIF,Thomas County Airport,KTIF,,Thedford,US,41.962200,-100.569000,2925
KTIK,Tinker Air Force Base,KTIK,,Oklahoma City,US,35.414700,-97.386597,1291
KTIP,Rantoul National Avn Center-Frank Elliot field,KTIP,,Rantoul,US,40.293598,-88.142403,737
KTIW,Tacoma Narrows Airport,KTIW,,Tacoma,US,47.267899,-122.578003,294
KTIX,Space Coast Regional Airport,KTIX,,Titusville,US,28.514799,-80.799202,34
KTKC,Tracy Municipal Airport,KTKC,,Tracy,US,44.249100,-95.607300,1340
KTKI,Collin County Regional At Mc Kinney Airport,KTKI,,Dallas,US,33.177898,-96.590500,585
KTKO,Mankato Airport,KTKO,,Mankato,US,39.802799,-98.221199,1859
KTKV,Tomahawk Regional Airport,KTKV,,Tomahawk,US,45.469101,-89.805702,1487
KTKX,Kennett Memorial Airport,KTKX,KNT,Kennett,US,36.225899,-90.036598,262
KTLH,Tallahassee Regional Airport,KTLH,TLH,Tallahassee,US,30.396500,-84.350304,81
KTLR,Mefford Field,KTLR,,Tulare,US,36.156300,-119.325996,265
KTMA,Henry Tift Myers Airport,KTMA,,Tifton,US,31.429001,-83.488503,355
KTMB,Kendall-Tamiami Executive Airport,KTMB,,Miami,US,25.647900,-80.432800,8
KTME,Houston Executive Airport,KTME,,Houston,US,29.807199,-95.897903,166
KTMK,Tillamook Airport,KTMK,OTK,Tillamook,US,45.418201,-123.814003,36
KTNP,Twentynine Palms Airport,KTNP,,Twentynine Palms,US,34.131599,-115.945999,1888
KTNT,Dade Collier Training and Transition Airport,KTNT,,Miami,US,25.861799,-80.897003,13
KTNU,Newton Municipal Airport,KTNU,,Newton,US,41.674400,-93.021698,953
KTNX,Tonopah Test Range Airport,KTNX,XSD,Tonopah,US,37.798801,-116.780998,5549
KTOA,Zamperini Field,KTOA,,Torrance,US,33.803398,-118.339996,103
KTOB,Dodge Center Airport,KTOB,,Dodge Center,US,44.018002,-92.831497,1305
KTOC,Toccoa Rg Letourneau Field,KTOC,,Toccoa,US,34.593800,-83.295799,996
KTOI,Troy Municipal Airport,KTOI,,Troy,US,31.860399,-86.012100,398
KTOL,Toledo Express Airport,KTOL,TOL,Toledo,US,41.586800,-83.807800,683
KTOP,Philip Billard Municipal Airport,KTOP,,Topeka,US,39.068699,-95.622498,881
KTOR,Torrington Municipal Airport,KTOR,,Torrington,US,42.064499,-104.153000,4207
KTPA,Tampa International Airport,KTPA,TPA,Tampa,US,27.975500,-82.533203,26
KTPF,Peter O Knight Airport,KTPF,,Tampa,US,27.915600,-82.449303,8
KTPH,Tonopah Airport,KTPH,,Tonopah,US,38.060200,-117.086998,5430
KTPL,Draughon Miller Central Texas Regional Airport,KTPL,TPL,Temple,US,31.152500,-97.407799,682
KTQE,Tekamah Municipal Airport,KTQE,,Tekamah,US,41.763500,-96.177902,1027
KTQH,Tahlequah Municipal Airport,KTQH,,Tahlequah,US,35.928902,-95.004501,874
KTQK,Scott City Municipal Airport,KTQK,,Scott City,US,38.474300,-100.885002,2963
KTRI,Tri Cities Regional Tn Va Airport,KTRI,TRI,Bristol/Johnson/Kingsport,US,36.475201,-82.407402,1519
KTRK,Truckee Tahoe Airport,KTRK,,Truckee,US,39.320000,-120.139999,5900
KTRL,Terrell Municipal Airport,KTRL,,Terrell,US,32.709202,-96.267403,474
KTRM,Jacqueline Cochran Regional Airport,KTRM,,Palm Springs,US,33.626701,-116.160004,-115
KTRX,Trenton Municipal Airport,KTRX,,Trenton,US,40.083500,-93.590599,758
KTSO,Carroll County-Tolson Airport,KTSO,,Carrollton,US,40.561901,-81.077499,1163
KTSP,Tehachapi Municipal Airport,KTSP,,Tehachapi,US,35.134998,-118.439003,4001
KTTA,Sanford-Lee County Regional Airport,KTTA,,Sanford,US,35.583698,-79.100800,246
KTTD,Portland Troutdale Airport,KTTD,,Portland,US,45.549400,-122.401001,39
KTTF,Custer Airport,KTTF,,Monroe,US,41.939899,-83.434700,616
KTTN,Trenton Mercer Airport,KTTN,TTN,Trenton,US,40.276699,-74.813499,213
KTTS,Nasa Shuttle Landing Facility Airport,KTTS,,Titusville,US,28.615000,-80.694504,10
KTUL,Tulsa International Airport,KTUL,TUL,Tulsa,US,36.198399,-95.888100,677
KTUP,Tupelo Regional Airport,KTUP,TUP,Tupelo,US,34.268101,-88.769897,346
KTUS,Tucson International Airport,KTUS,TUS,Tucson,US,32.116100,-110.941002,2643
KTVB,Cabool Memorial Airport,KTVB,,Cabool,US,37.132401,-92.084000,1220
KTVC,Cherry Capital Airport,KTVC,TVC,Traverse City,US,44.741402,-85.582199,624
KTVF,Thief River Falls Regional Airport,KTVF,TVF,Thief River Falls,US,48.065701,-96.184998,1119
KTVI,Thomasville Regional Airport,KTVI,,Thomasville,US,30.901600,-83.881302,264
KTVK,Centerville Municipal Airport,KTVK,,Centerville,US,40.683899,-92.901001,1023
KTVL,Lake Tahoe Airport,KTVL,TVL,South Lake Tahoe,US,38.893902,-119.995003,6264
KTVR,Vicksburg Tallulah Regional Airport,KTVR,,"Tallulah/Vicksburg, Ms",US,32.351601,-91.027702,86
KTVY,Bolinder Field Tooele Valley Airport,KTVY,,Tooele,US,40.612301,-112.350998,4322
KTWF,Joslin Field Magic Valley Regional Airport,KTWF,TWF,Twin Falls,US,42.481800,-114.487999,4154
KTWM,Richard B Helgeson Airport,KTWM,,Two Harbors,US,47.049198,-91.745102,1073
KTWT,Sturgis Municipal Airport,KTWT,,Sturgis,US,37.540798,-87.951797,372
KTXK,Texarkana Regional Webb Field,KTXK,TXK,Texarkana,US,33.453701,-93.990997,390
KTYL,Taylor Airport,KTYL,,Taylor,US,34.452801,-110.114998,5823
KTYQ,Indianapolis Executive Airport,KTYQ,,Indianapolis,US,40.030701,-86.251404,922
KTYR,Tyler Pounds Regional Airport,KTYR,TYR,Tyler,US,32.354099,-95.402397,544
KTYS,McGhee Tyson Airport,KTYS,TYS,Knoxville,US,35.811001,-83.994003,981
KTZR,Bolton Field,KTZR,,Columbus,US,39.901199,-83.136902,905
KTZT,Belle Plaine Municipal Airport,KTZT,,Belle Plaine,US,41.878799,-92.284599,771
KTZV,Tompkinsville Monroe County Airport,KTZV,,Tompkinsville,US,36.729000,-85.652397,1036
